,City,Cloudiness,Country,Humidity,Lat,Lng,Max Temp,Wind Speed
0,La Macarena,43,CO,37,2.18,-73.78,92.12,5.77
1,Upernavik,100,GL,91,72.79,-56.15,27.82,10.65
2,Thompson,75,CA,53,55.74,-97.86,24.8,9.17
3,East London,0,ZA,64,-33.02,27.91,64.27,6.89
4,Provideniya,90,RU,80,64.38,-173.3,30.2,15.66
5,Tual,94,ID,75,-5.67,132.75,83.39,4.81
6,Ribeira Grande,40,PT,67,38.52,-28.7,60.8,4.7
7,Torbay,75,CA,55,47.67,-52.73,43,19.46
8,Lavrentiya,100,RU,97,65.58,-171,27.48,12.1
9,Clyde River,75,CA,84,70.47,-68.59,8.6,18.34
10,Saint-Philippe,27,RE,61,-21.36,55.77,77,18.34
11,Bluff,100,NZ,95,-46.6,168.33,44.01,4
12,Port Hardy,20,CA,76,50.7,-127.42,51.8,5.82
13,Oudtshoorn,53,ZA,87,-33.59,22.2,59,3.36
14,Buala,100,SB,84,-8.14,159.59,79.16,6.91
15,Wanning,100,CN,81,18.8,110.4,75.36,8.16
16,Pontes E Lacerda,1,BR,65,-15.23,-59.34,73.09,4.7
17,Airai,11,TL,67,-8.93,125.41,61.32,3.02
18,Yulara,3,AU,49,-25.24,130.99,69.8,4.7
19,Khani,90,GE,87,41.96,42.96,46.4,2.24
20,Mahebourg,40,MU,69,-20.41,57.7,77,18.34
21,Mar Del Plata,0,AR,72,-38,-57.56,66,8.05
22,Nueve De Julio,0,AR,49,-35.44,-60.88,65.23,4.23
23,Fare,4,PF,71,-16.7,-151.02,83.71,8.7
24,Bredasdorp,100,ZA,82,-34.53,20.04,62.01,3.36
25,Paita,77,PE,100,-5.09,-81.11,62.6,19.46
26,Jamestown,90,US,71,42.1,-79.24,39.2,17.22
27,Cherskiy,43,RU,92,68.75,161.3,5.38,0.78
28,Hobart,20,AU,61,-42.88,147.33,46.4,16.11
29,Kaeo,99,NZ,93,-35.1,173.78,62.01,5.01
30,Itarema,48,BR,88,-2.92,-39.92,79.38,7.76
31,Barrow,90,US,85,71.29,-156.79,17.6,11.41
32,Mapiri,76,BO,43,-15.25,-68.17,74.41,1.48
33,Tuktoyaktuk,90,CA,85,69.45,-133.04,21.2,16.11
34,Qaanaaq,100,GL,83,77.48,-69.36,15.87,0.98
35,Balkhash,45,KZ,46,46.84,74.98,47.57,11.36
36,Matara,62,LK,83,5.95,80.54,78.62,2.91
37,Qeshm,58,IR,88,26.96,56.27,68,4.7
38,Indramayu,93,ID,78,-6.33,108.32,80.64,3.44
39,Avarua,84,CK,65,-21.21,-159.78,80.6,4.7
40,Cabo San Lucas,40,MX,47,22.89,-109.91,84.99,8.05
41,Negombo,58,LK,84,7.21,79.84,78.82,4.5
42,Illoqqortoormiut,,,,,,,
43,Mataura,100,NZ,95,-46.19,168.86,44.01,4
44,Ostrovnoy,100,RU,95,68.05,39.51,33.85,18.32
45,Copala,4,MX,47,16.65,-98.98,86.49,10.18
46,Ponta Do Sol,20,PT,59,32.67,-17.1,64.4,13.87
47,Yellowknife,75,CA,68,62.46,-114.35,30.2,10.29
48,Henties Bay,0,NA,89,-22.12,14.28,57.99,1.01
49,Pisco,0,PE,30,-13.7,-76.22,82,18.34
50,Pokhara,9,NP,31,28.23,83.98,63.46,3.96
51,Tsiroanomandidy,1,MG,62,-18.77,46.03,64.18,4.27
52,Lompoc,1,US,72,34.64,-120.46,69.01,14.99
53,Dikson,0,RU,85,73.51,80.55,-0.67,9.73
54,Faanui,27,PF,69,-16.48,-151.75,82.99,10.22
55,Auki,100,SB,85,-8.77,160.7,78.17,5.41
56,Hatillo,12,PR,76,18.49,-66.83,84.99,1.99
57,Ushuaia,99,AR,58,-54.8,-68.3,57.2,4.7
58,Sembakung,50,ID,91,3.82,117.25,74.57,2.53
59,Redwater,1,US,28,33.36,-94.25,72,10.29
60,Butaritari,100,KI,76,3.07,172.79,83.71,12.26
61,Sinnamary,99,GF,81,5.38,-52.95,80.64,11.65
62,Vaini,75,TO,83,-21.2,-175.2,77,4.7
63,Inuvik,90,CA,86,68.35,-133.72,35.6,13.87
64,Severo-Kurilsk,100,RU,95,50.68,156.12,30.85,12.84
65,High Rock,90,BS,83,26.62,-78.28,82.4,11.41
66,Lebu,11,CL,67,-37.62,-73.65,63.52,10.69
67,Tingo Maria,75,PE,78,-9.29,-76.01,80.6,2.24
68,Lorengau,99,PG,69,-2.02,147.27,83.3,2.17
69,Busselton,17,AU,56,-33.65,115.33,55.99,9.19
70,Mount Gambier,75,AU,93,-37.83,140.77,55.4,16.11
71,Avera,1,US,28,33.19,-82.53,71.6,5.82
72,Krasnoarmeysk,100,RU,64,51.02,45.7,44.01,5.99
73,Khlung,100,TH,81,12.45,102.22,80.19,2.62
74,Nome,90,US,100,64.5,-165.41,34,14.99
75,Rikitea,34,PF,76,-23.12,-134.97,76.37,12.3
76,Pusad,81,IN,17,19.9,77.58,86.94,1.43
77,Balabac,51,PH,80,7.99,117.06,81.34,9.8
78,Danshui,20,CN,83,22.8,114.47,73.99,4.47
79,Oistins,40,BB,62,13.07,-59.53,84.2,17.22
80,Havre-Saint-Pierre,90,CA,54,50.23,-63.6,28.4,28.86
81,Elat,28,IL,49,29.56,34.95,71.6,18.34
82,Virginia Beach,20,US,41,36.85,-75.98,64.4,11.41
83,Hermanus,100,ZA,92,-34.42,19.23,62.01,1.21
84,Kapaa,20,US,69,22.08,-159.32,78.8,11.41
85,Port Alfred,0,ZA,89,-33.59,26.89,60.01,3
86,Jalu,67,LY,36,29.03,21.55,69.91,11.16
87,Carnarvon,29,AU,73,-24.87,113.63,75.2,9.17
88,Hami,95,CN,23,42.8,93.45,63.16,6.49
89,Kjollefjord,75,NO,80,70.95,27.35,35.6,14.99
90,Yar-Sale,97,RU,98,66.83,70.83,16.97,10.83
91,New Norfolk,20,AU,61,-42.78,147.06,46.4,16.11
92,Nanortalik,100,GL,96,60.14,-45.24,32.4,3.74
93,Simplicio Mendes,96,BR,85,-7.85,-41.91,75.51,3.24
94,Saint George,1,US,21,37.1,-113.58,73,4.7
95,Amderma,,,,,,,
96,Noumea,28,NC,93,-22.28,166.46,66.2,9.93
97,Mehamn,75,NO,80,71.04,27.85,35.6,14.99
98,Salym,100,RU,91,60.06,71.48,41.38,7.63
99,Cairns,90,AU,83,-16.92,145.77,77,3.36
100,Srednekolymsk,100,RU,92,67.45,153.68,-0.24,7.58
101,Beyneu,99,KZ,67,45.32,55.2,54.59,15.82
102,Port Macquarie,63,AU,68,-31.43,152.92,66.2,6.6
103,Darhan,2,MN,43,49.49,105.92,42.58,1.12
104,Necochea,26,AR,66,-38.55,-58.74,71.01,1.99
105,Souillac,40,MU,69,-20.52,57.52,77,18.34
106,Albany,40,US,33,42.6,-73.97,45,24.16
107,Manono,98,CD,78,-7.3,27.42,72.54,2.53
108,San Patricio,5,MX,69,19.22,-104.7,78.8,11.41
109,Plettenberg Bay,41,ZA,70,-34.05,23.37,61.57,5.61
110,Kruisfontein,4,ZA,61,-34,24.73,56.84,5.64
111,Palabuhanratu,,,,,,,
112,Panjwin,,,,,,,
113,Sitka,90,US,93,57.05,-135.33,44.6,3.36
114,Srivardhan,19,IN,88,18.03,73.02,79.5,0.2
115,Asfi,95,MA,85,32.3,-9.24,63.9,5.19
116,Louisbourg,,,,,,,
117,Talaja,84,IN,31,21.35,72.05,85.39,10.22
118,Sungairaya,100,ID,89,0.7,108.9,78.4,3.53
119,Cape Town,100,ZA,93,-33.93,18.42,62.01,4.7
120,Alipur,100,PK,20,29.38,70.91,88.45,8.1
121,Castro,0,BR,42,-24.79,-50.01,56.7,1.36
122,Manyana,0,BW,18,-23.4,21.72,66.58,10.22
123,Chuy,8,UY,82,-33.7,-53.46,65.39,10.87
124,Warangal,0,IN,42,18,79.58,80.28,11.65
125,Lieksa,99,FI,89,63.32,30.02,32.81,13.2
126,Abu Kamal,100,SY,37,34.45,40.92,70.47,5.86
127,Kushiro,0,JP,85,42.98,144.37,34.47,4.68
128,Salalah,40,OM,74,17.02,54.09,82.4,3.36
129,Hithadhoo,95,MV,69,-0.6,73.08,84.99,6.35
130,Khandyga,10,RU,84,62.67,135.6,-4.18,3.6
131,Belushya Guba,,,,,,,
132,Arraial Do Cabo,40,BR,78,-22.97,-42.03,78.8,4.7
133,Katsuura,75,JP,66,35.13,140.3,48.99,9.17
134,Nikolskoye,20,RU,74,59.7,30.79,37.4,11.18
135,Mulki,31,IN,80,13.1,74.8,80.2,1.61
136,Oussouye,29,SN,58,12.48,-16.55,74.93,10.58
137,Caxito,40,AO,78,-8.58,13.66,82.4,16.11
138,Manta,40,EC,74,-0.95,-80.73,84.2,6.93
139,Englewood,90,US,86,39.65,-104.99,32,12.75
140,Nizhneyansk,,,,,,,
141,Hirara,0,JP,69,24.8,125.28,70.52,13.04
142,Guerrero Negro,100,MX,26,27.98,-114.06,76.08,13.06
143,San Pedro,20,PH,74,14.35,121.02,82.4,6.93
144,Beroroha,40,MG,56,-21.67,45.17,75.85,12.91
145,Padang,99,ID,80,-0.95,100.35,77.09,2.95
146,Taolanaro,,,,,,,
147,Hilo,20,US,65,19.73,-155.09,77,4.7
148,Nsanje,0,MW,72,-16.92,35.26,77.92,8.19
149,Hamilton,90,US,37,39.18,-84.53,52,12.75
150,Tumannyy,,,,,,,
151,Penzance,74,GB,87,50.12,-5.54,55.99,8.05
152,Coquimbo,17,CL,63,-29.95,-71.34,66.2,12.75
153,Saint Anthony,75,US,26,45.02,-93.22,46.99,14.99
154,Marienburg,0,PL,60,54.04,19.03,45,9.17
155,Wanxian,58,CN,63,30.8,108.39,70.21,6.38
156,Punta Arenas,90,CL,87,-53.15,-70.92,53.6,9.17
157,Adrar,27,MR,20,20.5,-10.07,89.82,4.56
158,Ballina,26,AU,100,-28.87,153.57,68,3.36
159,Caravelas,26,BR,82,-17.71,-39.25,79.02,8.05
160,Charters Towers,4,AU,86,-20.1,146.27,69.71,5.93
161,Gravdal,99,NO,80,68.12,13.5,37.35,25.41
162,Kavieng,100,PG,89,-2.57,150.8,78.91,19.51
163,Ankazobe,75,MG,87,-18.32,47.12,60.8,8.05
164,Puerto Ayora,75,EC,83,-0.74,-90.35,84,14.99
165,Bambous Virieux,40,MU,69,-20.34,57.76,77,18.34
166,Morondava,0,MG,78,-20.28,44.28,78.75,8.86
167,Wadern,16,DE,58,49.53,6.88,59,1.12
168,Port Elizabeth,0,ZA,82,-33.92,25.57,59,3.36
169,Willowmore,1,ZA,46,-33.29,23.49,55.09,5.73
170,Kostino,95,RU,79,58.91,53.27,35.28,11.9
171,Benguela,4,AO,84,-12.58,13.41,78.24,3.8
172,Port Lincoln,17,AU,69,-34.73,135.87,59.34,9.28
173,Neftcala,99,AZ,68,39.37,49.25,51.96,11.97
174,Madison,1,US,39,34.73,-86.57,69.01,2.06
175,Gondanglegi,95,ID,89,-7.75,112.01,75.96,0.6
176,Banda Aceh,100,ID,83,5.56,95.32,79.39,5.53
177,Kiama,15,AU,100,-34.68,150.87,66,4.7
178,Omboue,100,GA,92,-1.57,9.26,78.17,9.44
179,Kirensk,75,RU,82,57.79,108.11,35.35,6.51
180,Gongzhuling,100,CN,39,43.5,124.82,53.11,1.97
181,Westport,40,US,23,41.14,-73.36,50,16.11
182,Kahului,20,US,57,20.89,-156.47,80.6,20.8
183,Grajau,100,BR,86,-5.82,-46.14,77.41,2.15
184,Tasiilaq,100,GL,92,65.61,-37.64,30.2,24.16
185,Rio Grande,20,BR,53,-32.03,-52.1,75.2,13.87
186,Kodiak,90,US,87,57.79,-152.41,42.8,5.82
187,Longyearbyen,40,SJ,74,78.22,15.64,30.2,10.29
188,Bonavista,84,CA,64,48.65,-53.11,41,10
189,Zhanatas,,,,,,,
190,Coria,45,ES,87,39.99,-6.54,55.99,1.01
191,Barentsburg,,,,,,,
192,Bilma,100,NE,10,18.69,12.92,87.33,8.25
193,Kaitangata,100,NZ,83,-46.28,169.85,48,1.99
194,Portland,1,US,20,45.52,-122.68,70,19.46
195,Atuona,40,PF,72,-9.8,-139.03,82.72,12.77
196,Bethel,75,US,24,41.37,-73.41,48.99,14.99
197,Saleaula,,,,,,,
198,Mys Shmidta,,,,,,,
199,Teacapan,90,MX,33,22.55,-105.75,84.15,10.65
200,Tiksi,100,RU,90,71.69,128.87,-8.55,6.6
201,Mendahara,,,,,,,
202,Saldanha,100,ZA,82,-33.01,17.94,62.6,6.93
203,Havoysund,40,NO,86,71,24.66,37.4,14.99
204,Sao Filipe,78,CV,71,14.9,-24.5,73.11,14.5
205,Puerto Narino,75,CO,74,-3.77,-70.38,87.8,3.36
206,Haines Junction,100,CA,67,60.75,-137.51,43.18,3.96
207,Musoma,99,TZ,61,-1.5,33.8,71.04,2.95
208,Vanavara,100,RU,81,60.34,102.28,35.38,11.03
209,Trapani,20,IT,87,37.83,12.67,61,6.93
210,Kyshtovka,2,RU,86,56.55,76.63,40.78,5.08
211,Oktyabrskiy,62,RU,76,54.48,53.47,36.66,10.65
212,Le Mars,100,US,41,42.79,-96.17,41,5.82
213,Guiratinga,50,BR,76,-16.35,-53.76,75.7,3.8
214,Gayny,100,RU,82,60.31,54.32,34.45,9.98
215,Dawei,100,MM,80,14.08,98.2,77.81,3.18
216,Yartsevo,100,RU,88,55.07,32.7,34.93,15.48
217,Tibacuy,63,CO,36,4.35,-72.46,92.34,9.69
218,Belmonte,20,BR,78,-15.86,-38.88,80.6,6.93
219,Sibolga,86,ID,79,1.74,98.78,76.98,3.36
220,Khatanga,0,RU,88,71.97,102.5,-0.49,11.36
221,Coihaique,90,CL,93,-45.58,-72.07,60.8,8.05
222,Krasnyy Chikoy,0,RU,56,50.36,108.75,35.13,0.89
223,Ararat,75,AM,93,39.83,44.7,50,4.7
224,Diamantino,12,BR,74,-14.41,-56.45,77.13,6.91
225,Khonuu,,,,,,,
226,Norman Wells,90,CA,93,65.28,-126.83,39.2,4.7
227,Mogadishu,65,SO,75,2.04,45.34,84.16,12.46
228,Vila Velha,40,BR,83,-20.33,-40.29,81,11.41
229,Sapanta,74,RO,57,47.97,23.7,50,3.36
230,Kieta,100,PG,86,-6.22,155.63,78.84,13.94
231,Bur Gabo,,,,,,,
232,Hwange,0,ZW,47,-18.37,26.5,72.21,1.59
233,Shelburne,75,CA,47,44.08,-80.2,39,25.28
234,Abong Mbang,100,CM,79,3.98,13.18,71.47,2.33
235,Quang Ngai,96,VN,85,15.12,108.8,74.08,4.97
236,Klaksvik,89,FO,86,62.23,-6.59,41,6.93
237,Sfantu Gheorghe,58,RO,67,45.87,25.78,44.01,1.45
238,Esperance,0,AU,87,-33.87,121.9,51.8,6.93
239,Alotau,,,,,,,
240,Nieuw Amsterdam,20,SR,58,5.88,-55.08,86,5.82
241,Ayan,100,RU,97,56.45,138.17,27.48,10.13
242,Krasnoselkup,100,RU,99,65.7,82.47,30.92,5.06
243,Sergach,100,RU,89,55.53,45.47,38.12,13.15
244,Moose Factory,90,CA,53,51.26,-80.61,21.2,16.11
245,Yerbogachen,46,RU,91,61.28,108.01,21.85,9.4
246,Belaya Gora,100,RU,91,68.53,146.42,-3.69,8.25
247,Bonthe,83,SL,81,7.53,-12.51,81.09,9.35
248,Lagoa,12,PT,81,39.05,-27.98,59.31,16.93
249,Dicabisagan,87,PH,84,17.08,122.42,75.51,3.04
250,Yirol,,,,,,,
251,Terrace Bay,75,CA,50,48.78,-87.1,28.4,8.05
252,Jos,0,NG,13,9.92,8.9,76.35,1.07
253,Peleduy,51,RU,92,59.63,112.74,21.52,10.6
254,Panama City,40,PA,74,8.99,-79.52,91.4,10.29
255,Xining,98,CN,22,36.62,101.77,39.79,0.83
256,Astorga,0,BR,40,-23.23,-51.67,78.8,6.93
257,Garmsar,11,IR,34,35.22,52.34,63.25,3.15
258,Carutapera,81,BR,75,-1.2,-46.02,81.73,4.05
259,Touros,75,BR,83,-5.2,-35.46,80.6,5.82
260,Monforte De Lemos,100,ES,95,42.52,-7.51,53.01,5.14
261,Jacareacanga,40,BR,70,-6.22,-57.75,86,1.12
262,Brownwood,1,US,41,31.71,-98.99,77,16.11
263,Lata,20,PT,87,40.16,-8.33,60.01,10.29
264,Batsfjord,90,NO,87,70.63,29.72,35.6,18.34
265,Port-Gentil,75,GA,94,-0.72,8.78,82.4,6.93
266,Harbour Breton,95,CA,81,47.48,-55.8,35.2,19.77
267,Utiroa,,,,,,,
268,Daru,94,PG,87,-9.08,143.21,77.95,2.91
269,Miri,75,MY,100,4.41,114.01,78.8,1.12
270,Lamu,100,KE,84,-2.27,40.9,81.91,8.75
271,Broome,90,US,43,42.25,-75.83,39.99,14.99
272,Chokurdakh,98,RU,91,70.63,147.92,-9.17,8.12
273,Hemet,1,US,24,33.75,-116.97,79,9.17
274,Puerto Quijarro,0,BO,46,-17.78,-57.77,76.23,4.59
275,Saint-Jean-De-Maurienne,6,FR,50,45.17,6.58,54,2.46
276,Prattville,1,US,24,32.46,-86.46,75,6.93
277,Ponta Delgada,20,PT,72,37.73,-25.67,60.8,8.05
278,Umm Ruwabah,,,,,,,
279,Najran,5,SA,47,17.49,44.13,78.8,6.93
280,Paamiut,95,GL,91,61.99,-49.67,32.4,18.25
281,Faya,0,SA,72,18.39,42.45,62.6,3.78
282,Jakar,92,BT,35,27.55,90.75,42.78,2.3
283,Bubaque,29,GW,69,11.28,-15.83,79.11,16.08
284,Bud,75,US,45,39.45,-86.18,48.99,17.22
285,Kemise,98,ET,48,10.72,39.87,69.93,1.57
286,Meulaboh,100,ID,86,4.14,96.13,77.34,2.33
287,Phalodi,98,IN,22,27.13,72.37,88.45,9.17
288,Natal,20,BR,78,-5.79,-35.21,82.4,10.29
289,Mahanje,20,TZ,72,-9.93,35.33,64.54,1.05
290,Sao Joao Da Barra,75,BR,78,-21.64,-41.05,77,9.17
291,Appiano,,,,,,,
292,Vanimo,36,PG,82,-2.67,141.3,79.25,4.9
293,Georgetown,20,MY,94,5.41,100.34,82.4,3.36
294,Waddan,30,LY,39,29.16,16.14,72.21,8.34
295,Eenhana,51,NA,69,-17.47,16.33,75.2,2.24
296,Lasa,13,IT,26,46.62,10.7,60.8,4.7
297,Toora-Khem,55,RU,64,52.47,96.11,31.6,2.08
298,Viedma,66,AR,29,-40.81,-63,78.53,15.28
299,Belle Fourche,20,US,54,44.67,-103.85,36,5.82
300,Meadow Lake,1,US,9,34.8,-106.54,73.99,19.46
301,Palmeira,0,BR,45,-25.43,-50.01,56.64,1.19
302,Manado,20,ID,94,1.49,124.85,75.2,1.12
303,Yantal,100,RU,81,56.85,105.25,39.06,2.46
304,Vardo,75,NO,86,70.37,31.11,35.6,18.34
305,Alyangula,46,AU,100,-13.85,136.42,71.6,2.91
306,Isangel,61,VU,78,-19.55,169.27,77.92,16.98
307,Phrai Bung,,,,,,,
308,Puerto Leguizamo,83,CO,46,-0.19,-74.78,90.81,2.26
309,Qaqortoq,100,GL,95,60.72,-46.03,32,6.93
310,Antsohihy,0,MG,69,-14.88,47.99,77.11,9.13
311,Samusu,,,,,,,
312,Yaan,31,NG,49,7.38,8.57,89.55,10.45
313,Kihei,20,US,57,20.79,-156.47,80.6,20.8
314,Opuwo,22,NA,22,-18.06,13.84,73.42,3.2
315,Pontalina,98,BR,76,-17.52,-49.45,71.56,4.88
316,Vysokogornyy,0,RU,73,50.12,139.15,30.79,2.75
317,Iskateley,100,RU,95,67.68,53.15,32.13,14.83
318,Edea,40,CM,94,3.8,10.13,80.6,3.36
319,Akcaabat,75,TR,81,41.02,39.57,48.2,3.36
320,Aklavik,90,CA,80,68.22,-135.01,35.6,17.22
321,Disraeli,40,CA,55,45.9,-71.35,33.8,14.99
322,Ayagoz,40,KZ,56,47.97,80.44,38.84,10.63
323,Dingle,56,PH,79,11,122.67,79.54,6.15
324,Ye,,,,,,,
325,Geraldton,95,AU,77,-28.77,114.6,62.6,5.82
326,Aguascalientes,5,MX,8,21.88,-102.3,87.8,18.34
327,Lopik,98,NL,66,51.97,4.95,60.01,10.29
328,Pangnirtung,75,CA,67,66.15,-65.71,21.2,9.17
329,Namibe,0,AO,62,-15.2,12.15,75.04,6.98
330,Inhambane,40,MZ,88,-23.86,35.38,78.8,5.84
331,Odesskoye,76,RU,58,54.21,72.97,47.37,7.23
332,Aguimes,75,ES,68,27.91,-15.45,69.8,11.41
333,Santa Marta,20,CO,44,11.24,-74.2,97,13.87
334,Ouallam,13,NE,10,14.32,2.09,90.21,10.85
335,Skalistyy,,,,,,,
336,Maniitsoq,100,GL,93,65.42,-52.9,29.82,28.01
337,Anadyr,20,RU,92,64.75,177.48,12.2,11.18
338,Hasaki,75,JP,61,35.73,140.83,48.2,6.93
339,Port Hedland,99,AU,94,-20.32,118.57,78.8,9.17
340,Cidreira,5,BR,71,-30.18,-50.21,67.93,12.97
341,Mananjary,14,MG,76,-21.22,48.33,75.27,6.2
342,Andijon,31,UZ,81,40.78,72.34,53.6,4.47
343,Haimen,37,CN,100,23.19,116.61,62.6,2.24
344,Laguna,1,US,38,38.42,-121.42,79,5.82
345,Vestmanna,77,FO,86,62.16,-7.17,41,6.93
346,Ulladulla,55,AU,100,-35.35,150.47,62.01,4.7
347,Te Anau,98,NZ,79,-45.42,167.72,49.78,2.8
348,Tessalit,30,ML,16,20.2,1.01,85.84,7.76
349,Asau,10,RO,59,46.43,26.4,57.2,3.36
350,Evensk,4,RU,88,61.95,159.23,14.94,8.55
351,Sakakah,0,SA,19,29.97,40.21,69.8,11.41
352,Tura,96,IN,68,25.52,90.22,67.44,2.19
353,Vigrestad,91,NO,65,58.57,5.7,41,16.11
354,High Level,40,CA,34,58.52,-117.14,51.8,6.93
355,North Bend,1,US,26,43.41,-124.22,71.6,11.41
356,Louis Trichardt,0,ZA,69,-23.04,29.9,63.32,5.35
357,Urubicha,32,BO,36,-15.38,-62.95,79.93,3.33
358,Pichataro,5,MX,19,19.57,-101.8,80.6,11.41
359,Constitucion,62,CL,62,-35.33,-72.42,63.55,6.55
360,Porangatu,96,BR,85,-13.44,-49.15,72.66,2.01
361,Narsaq,100,GL,93,60.92,-46.05,32,6.93
362,Victoria,40,HK,83,22.29,114.16,73.99,11.41
363,Patnos,58,TR,47,39.23,42.86,42.93,1.86
364,Muravlenko,96,RU,94,63.79,74.52,32.59,10.2
365,Comodoro Rivadavia,93,AR,47,-45.87,-67.5,75.2,18.34
366,Korla,100,CN,39,41.76,86.15,60.82,8.63
367,Florianopolis,0,BR,40,-27.61,-48.5,72,9.17
368,Vaitupu,,,,,,,
369,Tsihombe,,,,,,,
370,Kutum,0,SD,13,14.2,24.67,64.31,9.37
371,Road Town,20,VG,70,18.42,-64.62,84.2,10.29
372,Khonsa,100,IN,60,27.02,95.57,61.97,2.04
373,Cayenne,87,GF,78,4.93,-52.33,80.6,8.05
374,Falealupo,,,,,,,
375,Rock Springs,90,US,68,41.59,-109.2,24.8,24.16
376,College,90,US,86,64.86,-147.8,42.01,5.82
377,Ahipara,100,NZ,84,-35.17,173.17,66.49,21.03
378,Humaita,92,BR,85,-7.51,-63.02,81.99,2.06
379,Sovetskiy,100,RU,93,61.36,63.58,42.12,6.69
380,Fortuna,20,US,87,40.6,-124.16,63,10.29
381,Batesville,20,US,34,35.77,-91.64,69.8,9.17
382,Rio Gallegos,100,AR,39,-51.62,-69.22,66.2,11.41
383,Ryotsu,0,JP,64,38.08,138.43,33.8,8.12
384,Deputatskiy,100,RU,85,69.3,139.9,-4.31,5.06
385,Samarai,78,PG,82,-10.62,150.67,80.67,4.79
386,Hirado,100,JP,76,33.36,129.55,57,3
387,Kota,92,IN,19,25.18,75.83,87.69,6.29
388,Santa Barbara,1,US,72,34.42,-119.7,71.01,6.93
389,Atar,98,MR,12,20.52,-13.05,87.48,8.21
390,Yumen,100,CN,21,40.28,97.2,50.97,18.59
391,Sola,96,VU,77,-13.88,167.55,82.65,16.64
392,Bintulu,75,MY,100,3.17,113.03,75.2,3.36
393,Kavaratti,89,IN,68,10.57,72.64,84.15,4.18
394,Alhama De Murcia,98,ES,93,37.85,-1.43,62.01,6.93
395,Berlevag,90,NO,91,70.86,29.09,35.6,18.34
396,Grand Gaube,40,MU,69,-20.01,57.66,77,18.34
397,Mabaruma,34,GY,62,8.2,-59.78,82.45,9.13
398,Cesme,0,TR,38,38.32,26.31,59,16.11
399,Enumclaw,1,US,29,47.2,-121.99,70,6.93
400,Fairbanks,90,US,93,64.84,-147.72,42.01,9.17
401,Tezu,99,IN,70,27.92,96.17,69.17,1.72
402,Mizdah,3,LY,52,31.45,12.98,65.71,16.02
403,Port Arthur,40,CN,93,38.8,121.27,48.2,2.24
404,Tahta,75,EG,20,26.77,31.5,82.4,18.34
405,Kalabo,5,ZM,50,-14.97,22.68,71.31,4.23
406,Caconda,0,AO,57,-13.73,15.07,61.02,1.01
407,Saskylakh,0,RU,89,71.92,114.08,-12.35,0.76
408,Bambanglipuro,99,ID,84,-7.95,110.28,78.96,6.13
409,San Ramon,1,US,67,37.78,-121.98,75.2,5.82
410,Radnevo,5,BG,76,42.3,25.93,48.2,2.24
411,Tyukhtet,100,RU,87,56.54,89.3,35.98,5.28
412,Ayna,87,PE,47,-12.65,-73.92,63.01,3.96
413,Dunedin,100,NZ,72,-45.87,170.5,48,5.79
414,Shache,98,CN,39,38.42,77.24,57.69,14.85
415,Mount Isa,10,AU,67,-20.73,139.5,60.8,6.89
416,Saint-Joseph,24,RE,61,-21.37,55.62,77,18.34
417,Shingu,57,JP,77,33.73,135.98,57.16,7.78
418,Alofi,100,NU,72,-19.06,-169.92,79.97,14.38
419,Ozernovskiy,100,RU,96,51.5,156.52,29.95,9.04
420,Tres Palos,5,MX,55,18.18,-101.62,87.8,5.82
421,Karaul,,,,,,,
422,Karpuninskiy,,,,,,,
423,Grand River South East,,,,,,,
424,San Quintin,0,MX,52,30.48,-115.95,67.95,12.24
425,Hay River,75,CA,60,60.82,-115.8,39.2,2.24
426,Tabou,89,CI,87,4.42,-7.35,80.73,5.93
427,Frontignan,90,FR,87,43.45,3.75,59,8.05
428,Sisimiut,100,GL,93,66.94,-53.67,30.74,17.72
429,Nambour,32,AU,97,-26.63,152.95,66,1.01
430,Eyl,4,SO,76,7.98,49.82,83.75,10.47
431,Elko,90,US,25,41,-115.5,51.8,10.29
432,Moratuwa,68,LK,84,6.77,79.88,78.94,3.91
433,Ugoofaaru,15,MV,71,5.67,73,85.05,9.73
434,Poso,28,ID,67,-1.4,120.75,78.55,2.33
435,Chake Chake,100,TZ,82,-5.25,39.77,82.69,17.6
436,Vila Franca Do Campo,20,PT,72,37.72,-25.43,60.8,8.05
437,Santiago Del Estero,26,AR,37,-27.8,-64.26,78.64,7.38
438,Port Blair,91,IN,74,11.67,92.75,82.87,4.03
439,Bandarbeyla,16,SO,75,9.49,50.81,82.04,7.07
440,Swan Hill,0,AU,72,-35.34,143.55,50.5,6.78
441,Mount Barker,75,AU,59,-35.07,138.87,61,13.87
442,Luena,96,AO,64,-11.78,19.92,63.9,2.26
443,Le Port,75,RE,88,-20.94,55.29,77,18.34
444,Namatanai,99,PG,78,-3.67,152.43,81.07,12.33
445,Tuatapere,100,NZ,95,-46.13,167.68,44.01,5.01
446,Vostok,0,RU,68,46.49,135.88,30.67,3.06
447,Baracoa,4,CU,78,20.35,-74.5,80.06,6.71
448,Kailua,40,US,54,21.4,-157.74,82.4,11.41
449,Lima,3,PE,61,-12.04,-77.03,78.8,10.29
450,Rizhao,24,CN,79,35.43,119.46,52.81,4.36
451,Champerico,40,GT,47,14.3,-91.92,95,16.11
452,Nadvoitsy,96,RU,96,63.87,34.32,31.39,9.28
453,Meyungs,,,,,,,
454,Redlands,5,US,23,34.06,-117.18,84.2,8.05
455,Hermagor,99,AT,57,46.63,13.37,55,2.48
456,Shenjiamen,14,CN,87,29.96,122.3,61.47,20.27
457,Waterloo,75,CA,43,43.47,-80.52,39.99,24.16
458,Ust-Barguzin,11,RU,76,53.45,108.98,31.06,2.13
459,Belfast,11,GB,71,54.58,-5.93,53.6,13.87
460,Aflu,,,,,,,
461,Besskorbnaya,0,RU,6,44.64,41.31,43,8.01
462,Prainha,17,BR,77,-1.8,-53.48,81.9,1.52
463,Trairi,48,BR,83,-3.28,-39.27,80.6,8.59
464,Talca,84,CL,29,-35.43,-71.67,77,8.05
465,Flinders,7,AU,100,-34.58,150.86,66,4.7
466,Turukhansk,95,RU,90,65.82,87.98,33.84,7.65
467,Belturbet,30,IE,93,54.1,-7.45,46.31,5.66
468,Zhezkazgan,0,KZ,45,47.8,67.71,47.21,9.82
469,Tabiauea,,,,,,,
470,Kampong Thum,99,KH,84,12.71,104.89,78.76,7.18
471,Oriximina,95,BR,79,-1.77,-55.87,82.08,2.84
472,Livingston,90,GB,87,55.9,-3.52,48.99,10.29
473,Avigliana,7,IT,47,45.08,7.4,60.01,5.82
474,Westerly,75,US,24,41.38,-71.83,48.2,14.99
475,Santiago De Compostela,75,ES,100,42.88,-8.55,57,5.82
476,Arlit,65,NE,10,18.74,7.39,89.76,9.62
477,Goderich,50,CA,54,43.75,-81.72,43,13.82
478,Porechye-Rybnoye,90,RU,100,57.1,39.38,35.6,4.47
479,Hobyo,56,SO,75,5.35,48.53,84.52,11.99
480,Acapulco,5,MX,78,16.86,-99.89,82.4,11.41
481,Umm Bab,1,QA,100,25.21,50.81,73,4.43
482,Vung Tau,79,VN,80,10.35,107.08,80.74,15.05
483,Bitung,20,ID,94,1.45,125.18,75.2,1.12
484,Vestmannaeyjar,100,IS,88,63.44,-20.27,42.49,16.11
485,Hare Bay,90,CA,96,48.85,-54.01,32,10.29
486,Kloulklubed,1,PW,80,7.04,134.26,82.45,15.39
487,Agva,,,,,,,
488,Tilichiki,4,RU,93,60.47,166.1,12.6,8.75
489,Attawapiskat,,,,,,,
490,Independence,90,US,52,39.09,-94.42,53.01,14.99
491,Nioro,49,GM,21,13.35,-15.75,89.04,5.97
492,Halalo,,,,,,,
493,Hervey Bay,0,AU,93,-25.3,152.85,69.01,1.12
494,Veinticinco De Mayo,0,AR,32,-35.43,-60.17,75,3
495,Novyy Urengoy,100,RU,98,66.08,76.63,27.14,5.39
496,Byron Bay,25,AU,100,-28.65,153.62,69.01,3.36
497,Troitsko-Pechorsk,100,RU,89,62.71,56.2,33.13,7.85
498,Hofn,50,IS,70,64.25,-15.21,40.39,9.4
499,Vao,35,NC,65,-22.67,167.48,74.75,11.59
500,Sahuaripa,100,MX,10,29.05,-109.23,88.66,11.92
501,Obama,37,JP,93,35.5,135.75,44.01,4.47
502,Ngukurr,,,,,,,
503,Hastings,11,GB,81,50.86,0.57,55,10.29
504,Hualmay,24,PE,60,-11.1,-77.61,77.94,10.09
505,Sovetskaya Gavan,1,RU,78,48.97,140.29,36.14,3.49
506,Manacapuru,75,BR,100,-3.3,-60.62,73.4,6.93
507,Ust-Maya,83,RU,87,60.42,134.53,8.26,6.06
508,Higuey,,,,,,,
509,Richards Bay,5,ZA,76,-28.78,32.04,69.96,4.43
510,Mkushi,55,ZM,62,-13.62,29.39,64.45,4.12
511,Abha,0,SA,72,18.22,42.51,62.6,3.53
512,Riyadh,0,SA,43,24.69,46.72,71.6,3.36
513,Temaraia,,,,,,,
514,Naze,0,JP,93,28.37,129.48,55.4,5.82
515,Hambantota,22,LK,79,6.12,81.12,81.03,5.03
516,Chiredzi,6,ZW,77,-21.05,31.67,72.32,6.53
517,Honningsvag,75,NO,80,70.98,25.97,35.6,14.99
518,Yakeshi,0,CN,57,49.28,120.73,36.46,4.45
519,Biloela,0,AU,82,-24.42,150.5,65.68,1.43
520,Zhigansk,5,RU,87,66.77,123.37,-7.38,15.57
521,Kanniyakumari,82,IN,71,8.08,77.57,84.16,3.74
522,Bilibino,74,RU,86,68.05,166.44,9.99,1.5
523,Talawdi,,,,,,,
524,Ko Samui,100,TH,78,9.54,99.94,81.66,10.02
525,Pevek,97,RU,95,69.7,170.31,12.38,2.19
526,Pantayivka,26,UA,57,48.67,32.88,53.47,15.41
527,Canico,20,PT,59,32.63,-16.85,64.4,13.87
528,Biltine,0,TD,9,14.53,20.92,77.59,13.62
529,Tazovskiy,38,RU,97,67.47,78.7,10.2,1.5
530,Svetlogorsk,4,BY,66,52.63,29.73,40.12,14.14
531,Balimo,,,,,,,
532,Yaypan,22,UZ,38,40.38,70.82,60.21,0.31
533,Horadiz,63,AZ,87,39.45,47.34,51.8,16.11
534,Dickson,1,US,29,36.08,-87.39,66,8.05
535,Chapais,75,CA,39,49.78,-74.85,30.2,11.41
536,Fray Bentos,0,UY,70,-33.13,-58.3,66,7
537,Tapaua,,,,,,,
538,Sedelnikovo,,,,,,,
539,Sawakin,0,SD,53,19.11,37.33,74.53,3.53
540,Chardara,0,KZ,62,41.25,67.97,53.53,3.6
541,Glenwood Springs,90,US,92,39.55,-107.32,42.8,8.28
542,Shaoyang,2,CN,81,27.23,111.45,68.13,2.62
543,Aksu,99,CN,41,41.12,80.26,56.66,15.3
544,Ilulissat,20,GL,64,69.22,-51.1,35.6,3.36
545,Soavinandriana,15,MG,58,-19.17,46.73,55.11,6.04
546,Kamenskoye,,,,,,,
547,Imeni Zhelyabova,100,RU,87,58.95,36.6,33.12,8.05
548,Oga,0,IT,60,46.46,10.35,42.8,4.7
549,Kiyasovo,85,RU,68,56.35,53.12,39,3
550,Olafsvik,100,IS,91,64.89,-23.71,40.89,17.07
551,Yunjinghong,,,,,,,
552,Udachnyy,65,RU,84,66.42,112.4,-2.2,6.71
553,Xianyang,97,CN,25,34.34,108.7,66,6.71
554,Lolua,,,,,,,
555,Yatou,2,CN,86,37.15,122.38,49.19,7.99
556,Flin Flon,20,CA,37,54.77,-101.86,33.8,10.29
557,Myaundzha,100,RU,82,63.05,147.19,2.32,6.53
558,Iracoubo,100,GF,79,5.48,-53.2,80.65,10.42
559,Katherine,94,AU,83,-14.47,132.27,71.6,3.6
560,Kreuztal,90,DE,47,50.97,7.98,62.01,2.24
561,Linxi,29,CN,73,39.7,118.43,48.72,11.9
562,Moyobamba,100,PE,73,-6.05,-76.97,72.43,1.83
563,Leningradskiy,100,RU,95,69.38,178.42,15.06,9.22
564,Contamana,100,PE,86,-7.33,-75.02,69.66,4.85
565,Gizo,100,SB,81,-8.1,156.84,80.91,12.55
566,Lalomanu,,,,,,,
567,Pomerode,0,BR,41,-26.74,-49.18,78.8,8.05
568,Ottumwa,90,US,48,41.02,-92.41,42.8,10.29
569,Gornopravdinsk,100,RU,90,60.05,69.9,41.22,8.01
570,Araouane,9,ML,19,18.9,-3.53,88.09,8.84
571,Goedereede,46,NL,81,51.82,3.98,57.99,21.92
572,Karla,75,EE,64,59.37,24.93,39.2,17.22
573,Beloha,9,MG,62,-25.17,45.05,77.56,9.95
574,Pemangkat,100,ID,85,1.17,108.97,79.25,4.54
575,Lodwar,77,KE,42,3.12,35.6,88.36,8.99
576,Goundi,3,TD,11,9.36,17.37,90.25,2.28
577,La Palma,1,US,38,33.85,-118.05,78.01,6.93
578,Ticusul,,,,,,,
579,Santa Isabel,45,BR,50,-23.32,-46.22,80.6,8.05
580,Camacha,20,PT,77,33.08,-16.33,64.4,10.29
581,Marcona,,,,,,,
582,Lotofaga,75,WS,88,-13.98,-171.86,80.6,11.41
583,Dakar,31,SN,82,14.69,-17.44,70.16,19.19
584,Kinkala,75,CG,83,-4.36,14.76,77,9.17
585,Panaba,44,MX,42,21.28,-88.27,92.35,10.45
586,Jiquipilas,40,MX,37,16.67,-93.65,96.8,10.29
587,Pahrump,1,US,22,36.21,-115.98,75.99,6.93
588,Liberal,1,US,33,37.04,-100.92,66.99,6.93
589,Cascais,75,PT,93,38.7,-9.42,62.01,16.11
590,Gigmoto,95,PH,79,13.78,124.39,82.02,14.7
591,Fredericton,75,CA,23,45.95,-66.67,41,11.41
592,Neropolis,75,BR,88,-16.41,-49.22,73.4,4.7
593,Gualaquiza,99,EC,63,-3.4,-78.55,69.17,2.33
594,Sentyabrskiy,,,,,,,
595,Ancud,90,CL,100,-41.87,-73.82,59,23.04
596,Kawalu,54,ID,82,-7.38,108.21,74.01,1.3
597,Conde,75,BR,94,-7.26,-34.91,77,5.82
598,Wewak,97,PG,83,-3.55,143.63,78.39,4.43
599,Mattru,62,SL,78,7.62,-11.83,81.03,5.12
600,Bengkulu,100,ID,83,-3.8,102.27,77.67,6.67
601,Shushtar,38,IR,27,32.05,48.86,74.08,1.23
602,Doctor Pedro P. Pena,,,,,,,
603,Sar-E Pul,100,AF,45,35.83,66.17,47.35,1.28
604,Cumaribo,,,,,,,
605,Neiafu,75,TO,94,-18.65,-173.98,77,2.24
606,San Cristobal,40,VE,49,7.77,-72.22,89.6,13.87
607,Glenview,1,US,28,42.07,-87.79,46.99,14.99
608,Puerto Madryn,93,AR,24,-42.77,-65.04,83.97,12.35
609,Nelson Bay,7,AU,68,-32.72,152.15,69.01,10.29
610,Erenhot,0,CN,42,43.65,111.98,42.21,7.83
611,Nogliki,0,RU,92,51.83,143.17,31.23,9.31
612,Babanusah,,,,,,,
613,Asyut,39,EG,26,27.18,31.18,78.8,17.22
614,Waitati,100,NZ,78,-45.75,170.57,48,1.01
615,Ewa Beach,40,US,54,21.32,-158.01,82.4,10.29
616,Radford,1,US,25,37.13,-80.58,62.01,19.46
617,Sindor,100,RU,86,62.86,51.89,33.8,10.4
618,Yining,86,CN,73,29.04,114.56,69.57,1.52
619,Ketchikan,1,US,71,55.34,-131.65,53.6,20.8
